ODOM 2.573456 1.797864 0.002994 0.000000 0.000000 0.000000
FLASER 361 0.962155 1.057392 1.038362 1.067556e+00 0.993592 1.031452 0.927189 1.051331e+00 1.042944 0.951009 1.100548 1.020362e+00 1.062789 0.993840 1.041217 1.008933e+00 1.067311 0.947681 1.034231 1.047850e+00 1.031934 1.129750 0.980956 9.818128e-01 1.085335 1.127359 1.034999 1.029745e+00 0.987026 1.129980 0.942897 1.025737e+00 1.047574 0.995328 1.070289 1.019056e+00 1.025783 1.120794 1.061905 1.101411e+00 1.009191 1.158823 1.090207 1.122479e+00 1.069311 1.088239 1.061767 1.030071e+00 1.074443 1.164658 1.071975 1.087595e+00 1.097248 1.123720 1.142745 1.129202e+00 1.183628 1.091021 1.126711 1.144860e+00 1.179173 1.121168 1.226988 1.146871e+00 1.128859 1.190153 1.162766 1.168851e+00 1.147096 1.245429 1.219998 1.270250e+00 1.205440 1.152957 1.242923 1.268469e+00 1.219813 1.275577 1.201188 1.335297e+00 1.267301 1.373885 1.347063 1.254791e+00 1.331563 1.373502 1.290442 1.424408e+00 1.404843 1.418565 1.311233 1.472273e+00 1.490760 1.452727 1.396359 1.426000e+00 1.544897 1.497844 1.535877 1.531975e+00 1.501923 1.550230 1.610361 1.610555e+00 1.611992 1.627979 1.683322 1.741960e+00 1.700231 1.781718 1.714216 1.759772e+00 1.791436 1.878730 1.763401 1.859710e+00 1.939356 1.973918 1.944335 2.009509e+00 2.001412 1.993180 2.048320 2.027399e+00 2.030798 2.206069 2.244614 2.253239e+00 2.251973 2.300354 2.296483 2.434626e+00 2.464747 2.511677 2.541487 2.735521e+00 2.641253 2.777120 2.846686 2.885680e+00 2.922105 3.006510 3.097839 3.082603e+00 3.181965 3.235616 3.499146 3.567101e+00 3.558351 3.743833 3.808173 4.015972e+00 4.193702 4.095462 4.103908 4.092161e+00 4.115287 4.088218 4.000826 4.025995e+00 4.097658 3.950690 4.099111 4.137955e+00 4.012694 4.006820 3.936980 4.028582e+00 3.979910 4.041501 4.048857 3.940712e+00 3.958937 4.054170 4.008232 3.969081e+00 4.064121 3.995534 3.993909 4.047901e+00 4.067664 4.134320 4.023443 4.097265e+00 4.011568 4.072430 3.914494 4.011384e+00 3.914592 4.033861 3.999684 4.032228e+00 4.028810 4.003403 4.045822 4.028957e+00 4.035287 4.023510 4.176690 4.125866e+00 4.059646 4.021131 3.991455 4.084028e+00 4.015347 4.087614 4.029480 4.201789e+00 4.057135 4.109588 4.122334 4.132682e+00 4.177517 4.147602 4.101101 4.256280e+00 4.238610 4.147891 4.268241 4.201914e+00 4.211811 4.301094 4.175162 4.275440e+00 4.355049 4.353184 4.269492 4.298867e+00 4.375789 4.337455 4.391235 4.450197e+00 4.347561 4.500348 2.179427 2.139276e+00 2.176522 2.037164 2.035993 2.080404e+00 2.041272 1.969615 2.011194 2.030099e+00 1.939673 1.809450 1.797370 1.842142e+00 1.731595 1.765212 1.723442 1.655168e+00 1.763526 1.664861 1.656508 1.730606e+00 1.575310 1.483744 1.676118 1.628086e+00 1.512921 1.636596 1.549880 1.481056e+00 1.536918 1.455099 1.490795 1.428768e+00 1.503016 1.468974 1.427004 1.373907e+00 1.463087 1.505910 1.404923 1.476725e+00 1.488701 1.582093 1.515420 1.472279e+00 1.547387 1.566189 1.590599 1.530922e+00 1.552726 1.626633 1.636228 1.703671e+00 1.698284 1.739976 1.731508 1.768237e+00 1.699372 1.847914 1.863971 1.819016e+00 1.856399 1.865672 1.986176 1.962528e+00 1.982957 2.102717 2.046774 2.077103e+00 2.233100 2.241147 2.174337 2.288474e+00 2.283356 2.248843 2.392914 2.414466e+00 2.463269 2.519020 2.622030 2.664810e+00 2.620053 2.764764 2.707880 2.797972e+00 2.926773 3.025178 3.045289 3.112598e+00 3.198961 3.380417 3.446179 3.529855e+00 3.609243 3.836785 3.853749 3.960251e+00 4.120306 4.228233 4.392289 4.663803e+00 4.779375 4.959951 5.230689 5.476780e+00 5.820485 6.153190 6.428910 6.756732e+00 7.040152 7.091632 7.033573 7.075855e+00 6.964339 7.029560 6.980646 7.055093e+00 7.015102 6.970345 6.937011 6.978174e+00 7.026204 7.016084 6.979068 6.985741e+00 7.033926 2.500000 2.000000 0 2.500000 2.000000 0.000000
ODOM 2.980922 1.933518 0.189208 0.000000 0.000000 0.000000
FLASER 361 0.864394 0.865557 0.835347 8.647805e-01 0.796501 0.898045 0.822193 8.799708e-01 0.881713 0.861765 0.889888 8.820883e-01 0.785725 0.861997 0.864710 9.121002e-01 0.873757 0.909427 0.894268 9.354797e-01 0.894114 0.857806 0.931494 9.719977e-01 0.967810 0.842447 0.849464 8.800129e-01 0.883431 0.941576 1.014063 9.011919e-01 0.975647 0.964146 0.996033 9.226726e-01 0.996874 1.011825 0.961229 9.671986e-01 0.991381 1.018669 0.960830 9.660650e-01 0.991304 0.932059 0.999116 9.793505e-01 0.963301 1.026854 0.964263 1.116747e+00 1.064942 1.044668 1.062499 1.113241e+00 1.089218 1.062895 1.117624 1.049335e+00 1.104609 1.077377 1.123650 1.126996e+00 1.088128 1.210853 1.190781 1.184364e+00 1.183625 1.180660 1.285645 1.115934e+00 1.144161 1.262145 1.298501 1.294180e+00 1.098112 1.290622 1.283025 1.271709e+00 1.272843 1.345545 1.385726 1.290774e+00 1.265317 1.348516 1.503749 1.462095e+00 1.318105 1.442201 1.515607 1.441645e+00 1.531764 1.492391 1.553057 1.671879e+00 1.586160 1.582915 1.640257 1.712186e+00 1.663445 1.703323 1.653051 1.755359e+00 1.835137 1.789054 1.879453 1.852953e+00 1.850292 1.931073 1.969089 2.052138e+00 1.978832 2.098247 2.139943 2.199387e+00 2.284222 2.332092 2.427867 2.384870e+00 2.526496 2.511621 2.629047 2.699646e+00 2.752123 2.830067 2.931721 3.055519e+00 3.113601 3.165789 3.324742 3.518590e+00 3.602195 3.592524 3.642706 3.603679e+00 3.626665 3.611048 3.566701 3.592654e+00 3.583308 3.518763 3.548908 3.610514e+00 3.650136 3.587154 3.550955 3.627989e+00 3.534401 3.572659 3.510520 3.558744e+00 3.478262 3.497225 3.599135 3.572314e+00 3.536732 3.492361 3.509936 3.480064e+00 3.658185 3.537840 3.543939 3.455231e+00 3.427277 3.525991 3.536835 3.585014e+00 3.550700 3.573786 3.656516 3.651750e+00 3.492685 3.472053 3.619832 3.569152e+00 3.531821 3.525904 3.545374 3.481107e+00 3.543551 3.587252 3.631476 3.540779e+00 3.567641 3.617363 3.642387 3.700336e+00 3.641027 3.648065 3.609341 3.609429e+00 3.731334 3.676576 3.804147 3.706371e+00 3.750785 3.682216 3.751231 3.770241e+00 3.721401 3.814550 3.760452 3.868380e+00 3.852141 3.816680 3.866821 3.766671e+00 3.812135 3.949453 3.889573 3.941794e+00 3.939141 3.899027 4.059887 4.043360e+00 3.995136 4.012876 4.044043 4.128869e+00 4.103442 4.083131 4.132778 4.175343e+00 4.207738 4.201085 4.254989 4.306249e+00 4.279212 4.331925 4.341758 4.337926e+00 4.327197 4.386585 1.880494 1.967078e+00 1.881486 1.859786 1.797429 1.918979e+00 1.793384 1.896552 1.772742 1.792216e+00 1.676132 1.711367 1.684271 1.701223e+00 1.721239 1.661799 1.614187 1.653231e+00 1.577401 1.607085 1.530388 1.545954e+00 1.505323 1.609403 1.510573 1.568197e+00 1.590288 1.512056 1.451646 1.588005e+00 1.422528 1.428959 1.444480 1.332038e+00 1.424298 1.457291 1.502197 1.440849e+00 1.348959 1.339907 1.446485 1.404442e+00 1.427596 1.399276 1.321577 1.452696e+00 1.328244 1.350422 1.277359 1.304768e+00 1.289166 1.296729 1.281824 1.275387e+00 1.327497 1.212479 1.260913 1.234577e+00 1.329952 1.332942 1.482593 1.438984e+00 1.392091 1.389794 1.562699 1.551774e+00 1.577937 1.622553 1.712679 1.691018e+00 1.708272 1.811491 1.963471 2.018986e+00 1.939763 2.028582 2.104432 2.231050e+00 2.329999 2.300052 2.466139 2.566778e+00 2.687748 2.707110 3.002390 3.035660e+00 3.228702 3.376956 3.691037 3.850250e+00 4.089141 4.386980 4.690299 5.134321e+00 5.605909 6.054176 6.789720 7.111535e+00 7.186616 7.281497 7.144529 7.133182e+00 7.165373 7.156176 7.208951 7.134491e+00 7.247894 7.199778 7.235522 7.164562e+00 7.138791 7.157353 7.192628 7.157698e+00 7.116574 7.242500 7.162825 7.247288e+00 7.318657 7.156412 7.291569 7.201277e+00 7.264239 7.239048 7.229048 7.210045e+00 7.325414 2.969965 1.829316 1.835261e-01 2.969965 1.829316 0.183526
ODOM 3.526156 1.886970 0.552762 0.000000 0.000000 0.000000
FLASER 361 1.001035 0.974141 1.033559 9.528661e-01 0.969723 0.967639 1.086026 1.020292e+00 1.069916 1.080096 1.032243 1.166192e+00 1.058749 1.098166 1.165032 1.017385e+00 1.041143 1.156512 1.067874 1.170609e+00 1.048020 1.095247 1.062158 1.114740e+00 1.221632 1.117855 1.142872 1.228734e+00 1.207065 1.237640 1.282624 1.189525e+00 1.340957 1.427685 1.320969 1.328777e+00 1.245579 1.360812 1.291013 1.332521e+00 1.302850 1.378525 1.420140 1.366391e+00 1.475079 1.442424 1.358127 1.490700e+00 1.541280 1.558772 1.568918 1.537934e+00 1.582289 1.635576 1.670673 1.645876e+00 1.711244 1.636883 1.721423 1.781405e+00 1.792544 1.838246 1.862886 1.877886e+00 1.844686 1.887327 1.897804 2.002363e+00 2.095177 2.090238 2.211911 2.221533e+00 2.228104 2.273120 2.302384 2.396729e+00 2.398468 2.457080 2.498345 2.600078e+00 2.632407 2.783224 2.820762 2.861654e+00 2.955129 3.062735 3.047722 3.128260e+00 3.144396 3.150448 3.062821 3.159737e+00 3.058914 3.098543 3.062003 2.975536e+00 3.002126 2.999466 3.052742 3.062346e+00 3.033204 3.097159 3.137055 3.098200e+00 2.994481 3.030988 3.061615 3.059563e+00 2.952190 3.034066 2.992343 2.959893e+00 3.021249 3.028638 3.095509 2.939038e+00 3.006496 2.989862 3.081896 3.120542e+00 2.997575 3.002561 3.019914 3.046392e+00 3.079401 2.979528 3.047686 2.999510e+00 3.017752 3.084586 3.022145 3.083317e+00 2.978933 3.102991 3.127051 3.099592e+00 2.964598 3.140875 3.057946 3.134135e+00 3.056061 3.133028 3.046141 3.108932e+00 3.074937 3.175323 3.168853 3.117576e+00 3.194769 3.106287 3.184846 3.126991e+00 3.170027 3.250061 3.141435 3.152489e+00 3.140140 3.275413 3.199639 3.197344e+00 3.231091 3.359164 3.283052 3.356149e+00 3.417055 3.353079 3.222753 3.389208e+00 3.402638 3.309464 3.464522 3.441020e+00 3.459443 3.377853 3.412763 3.401460e+00 3.440090 3.559765 3.489451 3.576035e+00 3.612822 3.581797 3.539856 3.580834e+00 3.616395 3.690161 3.690076 3.641812e+00 3.716416 3.757226 3.774937 3.776084e+00 3.825086 3.879157 3.932004 3.965068e+00 3.949799 3.873399 3.944730 3.998421e+00 4.054708 4.006823 4.158272 4.154505e+00 4.194783 4.245934 4.209439 4.227996e+00 4.284801 4.282337 4.361335 4.449431e+00 4.427168 4.519594 1.552718 1.389852e+00 1.471924 1.564231 1.482090 1.518985e+00 1.526216 1.433964 1.452964 1.487641e+00 1.557994 1.384383 1.496225 1.396532e+00 1.421209 1.324573 1.410458 1.277996e+00 1.319467 1.401103 1.415222 1.369614e+00 1.291336 1.335779 1.238204 1.284405e+00 1.352220 1.364668 1.276669 1.276200e+00 1.325744 1.298107 1.259439 1.238345e+00 1.281375 1.366449 1.196646 1.290984e+00 1.237648 1.231681 1.152239 1.119199e+00 1.224836 1.173810 1.200047 1.196417e+00 1.146248 1.238177 1.177868 1.209262e+00 1.111264 1.181639 1.251900 1.283988e+00 1.203234 1.096035 1.054553 1.144148e+00 1.103434 1.203523 1.245817 1.138953e+00 1.119769 1.156612 1.127028 1.132958e+00 1.130699 1.197804 1.155714 1.182999e+00 1.174468 1.165601 1.151711 1.080389e+00 1.238036 1.237014 1.129611 1.110741e+00 1.112664 1.198636 1.199773 1.489171e+00 2.750591 7.152138 7.163905 7.116053e+00 7.129397 7.089960 7.103511 7.184597e+00 7.138259 7.148810 7.239036 7.186181e+00 7.267819 7.108179 7.171875 7.206079e+00 7.142265 7.303034 7.220260 7.288218e+00 7.214410 7.179224 7.283289 7.291483e+00 7.220498 7.383449 7.307909 7.284239e+00 7.339578 7.364138 7.287683 7.386355e+00 7.413089 7.185358 7.069875 6.809706e+00 6.619418 6.433614 6.243353 6.131379e+00 5.986713 5.757077 5.689429 5.560349e+00 5.381480 5.233298 5.200255 5.135552e+00 4.872572 4.822774 4.764504 4.755618e+00 4.625965 4.584047 4.524674 4.259327e+00 4.243779 4.186330 4.189363 4.049031e+00 4.027043 3.941246 3.982520 3.861896e+00 3.764849 3.469310 1.854895 5.471615e-01 3.469310 1.854895 0.547162
ODOM 3.459074 2.244033 0.003658 0.000000 0.000000 0.000000
FLASER 361 1.121495 1.222071 1.243344 1.205582e+00 1.087307 1.143533 1.265589 1.227313e+00 1.295730 1.217708 1.181340 1.220483e+00 1.168535 1.251429 1.237074 1.200036e+00 1.153091 1.250124 1.179219 1.268880e+00 1.216803 1.238711 1.296256 1.220264e+00 1.218829 1.214312 1.264718 1.229814e+00 1.284990 1.264637 1.289624 1.210132e+00 1.323933 1.210948 1.229556 1.214472e+00 1.207286 1.260601 1.282596 1.300700e+00 1.377376 1.345121 1.236679 1.328586e+00 1.228088 1.417076 1.249408 1.326929e+00 1.289206 1.236209 1.313284 1.347903e+00 1.351648 1.362686 1.364147 1.356392e+00 1.314986 1.426955 1.364750 1.320664e+00 1.485586 1.351332 1.399843 1.427043e+00 1.456654 1.442306 1.442060 1.409570e+00 1.384244 1.418528 1.478079 1.468570e+00 1.447819 1.435977 1.548938 1.585995e+00 1.556654 1.546900 1.577367 1.558885e+00 1.590179 1.636790 1.614733 1.529605e+00 1.660676 1.700629 1.562466 1.678525e+00 1.617899 1.579933 1.606244 1.748968e+00 1.714074 1.743084 1.757702 1.827778e+00 1.885836 1.840615 1.854556 1.827451e+00 1.861892 1.970984 1.939025 2.021873e+00 1.987092 2.011972 1.977725 2.071883e+00 2.090055 2.094443 2.044842 2.158454e+00 2.176366 2.217684 2.208797 2.199633e+00 2.262067 2.273446 2.357893 2.475441e+00 2.514021 2.369304 2.492236 2.426805e+00 2.529383 2.599092 2.731996 2.721738e+00 2.762921 2.888655 2.778360 3.047915e+00 2.999374 3.137176 3.167479 3.191865e+00 3.162364 3.222006 3.116878 3.105761e+00 3.153583 3.187318 3.300607 3.264449e+00 3.067067 3.216337 3.189471 3.106249e+00 3.123950 3.152534 3.054899 3.069808e+00 3.155205 3.064877 3.066958 3.188806e+00 3.005608 3.066082 3.063052 3.107490e+00 3.126825 3.002282 3.090666 3.048561e+00 3.075137 3.047424 2.953741 2.991474e+00 2.969816 2.893066 3.033367 2.987573e+00 3.037785 3.097210 2.981949 3.065165e+00 3.033901 3.048942 2.966822 2.978204e+00 3.054754 3.027258 3.007096 2.998882e+00 2.962264 2.988509 3.061177 3.022558e+00 3.023606 3.025149 3.060018 3.037561e+00 3.058488 2.970859 3.094415 3.080412e+00 3.030647 3.063062 3.100909 3.040447e+00 2.998340 3.102770 2.994028 3.037792e+00 3.135741 3.057399 3.125772 3.101291e+00 3.132480 3.143841 3.087065 3.179338e+00 3.221601 3.316761 3.200354 3.188086e+00 3.280303 3.210624 3.221442 3.286155e+00 3.272348 3.245514 3.183725 3.267015e+00 3.284426 3.198049 3.274573 3.283776e+00 3.315914 3.339704 3.245715 3.338296e+00 3.395279 3.320129 3.326799 3.421025e+00 3.432320 3.395844 3.538637 3.468105e+00 3.524875 3.512388 3.477479 3.573900e+00 3.592903 3.630141 3.622943 3.656898e+00 3.666405 3.714173 3.637885 3.635826e+00 3.822001 3.730908 3.731080 3.859651e+00 1.166023 1.194852 1.392777 1.220930e+00 1.252598 1.270031 1.215567 1.278429e+00 1.218906 1.256535 1.234404 1.163414e+00 1.110896 1.134634 1.111927 1.154911e+00 1.081111 1.152782 1.000150 1.101996e+00 1.150574 1.050730 0.973723 1.105597e+00 0.972225 1.016596 1.090302 1.065983e+00 1.039967 1.006481 0.950082 1.057057e+00 1.015113 0.957115 0.837592 1.010430e+00 0.965140 0.959834 0.903738 9.352354e-01 0.958020 0.964784 0.988600 9.791853e-01 1.046441 0.941076 0.923951 7.812811e-01 1.007244 0.848988 0.932149 8.784091e-01 0.922427 0.870634 0.889123 8.189965e-01 0.861859 0.876811 0.937009 8.627848e-01 0.840795 0.895139 0.968089 7.744067e-01 0.938384 0.817081 0.803793 8.838388e-01 0.826300 0.853947 0.862677 8.310020e-01 0.838528 0.845532 0.843158 8.289381e-01 0.861852 0.830513 0.776512 8.051704e-01 0.769930 0.917411 0.763381 9.279486e-01 0.815928 0.860902 0.753428 8.323658e-01 0.735145 0.799359 0.804548 8.722036e-01 0.842465 0.789494 0.772805 8.386408e-01 0.824063 0.905196 0.810996 7.738805e-01 0.804003 0.922599 2.256287 6.846072e+00 6.709205 3.487680 2.194324 1.201101e-02 3.487680 2.194324 0.012011
ODOM 3.844567 2.546859 -0.010253 0.000000 0.000000 0.000000
FLASER 361 1.391334 1.385585 1.429730 1.449415e+00 1.458533 1.538404 1.454718 1.486459e+00 1.419103 1.468390 1.426697 1.457760e+00 1.403257 1.421067 1.405868 1.479974e+00 1.505616 1.491272 1.519881 1.530812e+00 1.423250 1.450555 1.462632 1.444923e+00 1.532744 1.509305 1.399445 1.408714e+00 1.515303 1.514767 1.456596 1.522635e+00 1.450583 1.534904 1.552475 1.476385e+00 1.606965 1.553508 1.573082 1.594557e+00 1.498676 1.469762 1.678680 1.541298e+00 1.631702 1.524313 1.621439 1.569526e+00 1.621850 1.569851 1.600689 1.548574e+00 1.525146 1.600014 1.658703 1.608071e+00 1.671368 1.632779 1.582647 1.667978e+00 1.626725 1.736339 1.595504 1.664311e+00 1.683445 1.590263 1.767854 1.661622e+00 1.724744 1.739128 1.866781 1.719022e+00 1.747137 1.722268 1.785038 1.724656e+00 1.852335 1.871286 1.831591 1.775907e+00 1.882030 1.865839 1.849861 1.933045e+00 1.898136 2.036627 1.979538 1.949509e+00 2.071211 2.016180 2.086781 2.040551e+00 2.136981 2.143573 2.081908 2.107752e+00 2.151377 2.187669 2.249387 2.125158e+00 2.164831 2.223413 2.290645 2.345510e+00 2.262424 2.416749 2.346297 2.433217e+00 2.591229 2.495374 2.369739 2.635198e+00 2.459255 2.618077 2.572489 2.627846e+00 2.650192 2.612281 2.728429 2.816406e+00 2.794124 2.855882 2.936259 2.845877e+00 2.928105 2.840190 2.901646 2.934484e+00 2.929362 2.879791 2.981880 2.741559e+00 2.914822 2.908925 2.864563 2.819027e+00 2.660105 2.814753 2.821172 2.851118e+00 2.759322 2.718874 2.651622 2.762529e+00 2.747462 2.686631 2.602196 2.668362e+00 2.768624 2.744946 2.788640 2.764491e+00 2.601365 2.682505 2.729014 2.597257e+00 2.626522 2.624799 2.637290 2.691672e+00 2.613721 2.606424 2.678898 2.618203e+00 2.666569 2.577129 2.610651 2.591122e+00 2.589304 2.596277 2.574624 2.604470e+00 2.625932 2.538067 2.582362 2.604524e+00 2.508362 2.569590 2.564811 2.620334e+00 2.580610 2.516966 2.607465 2.635765e+00 2.578402 2.595754 2.538000 2.436417e+00 2.624967 2.608795 2.545174 2.632832e+00 2.614707 2.646294 2.598374 2.621439e+00 2.628122 2.596191 2.620441 2.573501e+00 2.571695 2.636595 2.567627 2.653153e+00 2.547512 2.609570 2.670740 2.688308e+00 2.652417 2.683031 2.651172 2.724241e+00 2.624178 2.752900 2.658759 2.724971e+00 2.655851 2.687745 2.773648 2.761620e+00 2.746369 2.734550 2.774494 2.749665e+00 2.679660 2.806141 2.710198 2.744908e+00 2.792086 2.791391 2.895266 2.827176e+00 2.855242 2.843426 2.823912 2.931612e+00 2.875667 2.874851 2.899963 2.995735e+00 2.984824 2.945028 3.061274 3.050108e+00 3.044100 3.098821 3.046511 3.017511e+00 3.016196 3.119929 3.100129 3.157462e+00 3.154500 3.236808 3.223294 3.213358e+00 3.187255 3.182688 3.250099 3.359793e+00 3.330703 3.362145 3.421399 3.365583e+00 3.430629 3.555709 3.490050 3.553897e+00 0.749650 0.825669 0.863907 7.948259e-01 0.778579 0.754426 0.669248 7.991941e-01 0.724299 0.718552 0.770614 7.217088e-01 0.776032 0.765414 0.722081 7.716826e-01 0.651304 0.704671 0.800603 8.047433e-01 0.732310 0.769073 0.699227 7.040468e-01 0.671355 0.657274 0.642119 7.180351e-01 0.637901 0.610432 0.558556 6.546989e-01 0.702460 0.655073 0.604670 6.977069e-01 0.599930 0.655750 0.605897 6.667798e-01 0.563327 0.686035 0.545034 5.838405e-01 0.675606 0.603398 0.573170 6.178495e-01 0.583920 0.700573 0.516311 5.806624e-01 0.376272 0.590648 0.662473 6.692813e-01 0.590803 0.618140 0.549844 5.642729e-01 0.589117 0.588784 0.549467 5.502298e-01 0.541225 0.530207 0.593106 5.479199e-01 0.613927 0.503100 0.609240 5.462085e-01 0.629736 0.619295 0.581482 5.774933e-01 0.597888 0.482792 0.549930 5.071552e-01 0.553148 0.583459 0.524664 5.622347e-01 0.607814 0.537501 0.495698 4.927707e-01 0.495078 0.482816 0.497641 4.660293e-01 0.542050 3.914680 2.454461 -1.587836e-02 3.914680 2.454461 -0.015878
ODOM 4.372865 2.499276 0.074017 0.000000 0.000000 0.000000
FLASER 361 1.522276 1.507374 1.513604 1.541654e+00 1.585475 1.624798 1.587984 1.508029e+00 1.486115 1.575832 1.534949 1.583214e+00 1.533657 1.522711 1.520474 1.565220e+00 1.507877 1.505013 1.576546 1.494063e+00 1.548696 1.572583 1.586528 1.667050e+00 1.512135 1.546801 1.497762 1.617659e+00 1.600578 1.604591 1.623719 1.689283e+00 1.675034 1.582873 1.617097 1.638862e+00 1.699118 1.584046 1.673380 1.656755e+00 1.526751 1.696374 1.700847 1.645819e+00 1.588457 1.684643 1.621558 1.635111e+00 1.671766 1.709632 1.640735 1.717409e+00 1.689748 1.738588 1.767998 1.880733e+00 1.796673 1.778524 1.774863 1.872468e+00 1.780845 1.772891 1.724799 1.905217e+00 1.912911 1.866181 1.974261 1.763732e+00 1.975198 1.968065 2.014274 1.908918e+00 1.967421 1.952735 1.995377 1.997170e+00 2.000659 2.115137 2.016409 2.127385e+00 2.093338 2.074517 2.112458 2.145762e+00 2.199716 2.193678 2.190365 2.253148e+00 2.318832 2.363047 2.316665 2.233412e+00 2.319442 2.319093 2.347918 2.405688e+00 2.351606 2.460331 2.419529 2.516904e+00 2.363100 2.585407 2.548352 2.483942e+00 2.547044 2.568577 2.528899 2.616526e+00 2.474583 2.446918 2.460181 2.465447e+00 2.453158 2.429665 2.500176 2.348988e+00 2.390315 2.417905 2.365529 2.378060e+00 2.348844 2.367240 2.290069 2.205158e+00 2.279013 2.224486 2.312518 2.346477e+00 2.284623 2.219798 2.279062 2.251197e+00 2.204142 2.257937 2.207069 2.110643e+00 2.206062 2.210206 2.235897 2.155884e+00 2.170763 2.170360 2.148838 2.210650e+00 2.177094 2.094814 2.160131 2.147283e+00 2.152433 2.187022 2.202265 2.197444e+00 2.118211 2.030992 2.074520 2.074022e+00 2.093732 2.119711 2.111035 2.137608e+00 2.075680 2.144947 2.223708 2.060324e+00 2.175183 2.125806 2.075549 2.115998e+00 2.138151 2.163527 2.101949 2.021115e+00 2.130133 2.084502 2.143151 2.073370e+00 2.093538 2.089354 2.021943 2.125972e+00 2.139999 2.143802 2.096371 2.127158e+00 2.068836 2.129630 2.074104 2.053545e+00 2.170941 2.138859 2.167823 2.140175e+00 2.114383 2.041962 2.141168 2.154322e+00 2.053332 2.119735 2.098420 2.133351e+00 2.235120 2.143568 2.175466 2.103780e+00 2.176149 2.173408 2.189263 2.144677e+00 2.081174 2.130212 2.277146 2.298793e+00 2.178368 2.236397 2.157622 2.254979e+00 2.210083 2.236949 2.259442 2.244306e+00 2.309077 2.241113 2.252750 2.342936e+00 2.280570 2.333886 2.294732 2.341326e+00 2.352925 2.368366 2.431967 2.387852e+00 2.387477 2.370868 2.521861 2.433672e+00 2.423407 2.493617 2.525082 2.463748e+00 2.449122 2.519946 2.496384 2.502898e+00 2.601114 2.563470 2.558019 2.614142e+00 2.673163 2.689586 2.696800 2.704507e+00 2.733939 2.792464 2.670932 2.687718e+00 2.731720 2.776451 2.865725 2.806412e+00 2.782805 2.958504 2.832123 2.904661e+00 2.932704 2.914355 3.064155 3.056387e+00 3.038803 3.093930 3.102049 3.201562e+00 3.254715 3.210175 3.224218 3.343452e+00 3.341238 3.422343 3.331035 3.426637e+00 3.517117 3.457438 3.576306 3.572848e+00 3.683416 3.702269 3.692965 3.771902e+00 3.945492 3.914419 3.884235 4.062524e+00 4.053807 4.045045 4.246397 4.253899e+00 4.366375 4.377703 4.439208 4.464482e+00 4.698812 4.570378 4.843987 4.822354e+00 7.201744 7.170933 7.088827 7.031830e+00 7.015446 6.933063 6.929572 6.999156e+00 6.978950 6.901314 6.833366 6.861076e+00 6.921298 6.790810 6.749916 6.681785e+00 6.676286 6.787599 6.816632 6.793842e+00 6.635228 6.689393 6.664302 6.570466e+00 6.664210 6.657962 6.675160 6.682730e+00 6.545575 0.396387 0.509565 5.233223e-01 0.457081 0.467080 0.575612 4.057924e-01 0.497585 0.476254 0.331533 4.192562e-01 0.417978 0.500488 0.439889 4.493381e-01 0.487742 0.438676 0.475377 4.870976e-01 0.417076 0.470761 0.532033 4.748366e-01 0.538446 0.493875 0.525719 4.791753e-01 0.452850 4.409266 2.527843 5.356406e-02 4.409266 2.527843 0.053564
ODOM 4.839895 2.752626 -0.078985 0.000000 0.000000 0.000000
FLASER 361 1.758099 1.820719 1.732216 1.775105e+00 1.797658 1.758302 1.705357 1.803525e+00 1.803319 1.791580 1.815454 1.817573e+00 1.752051 1.808868 1.860549 1.785005e+00 1.761408 1.876345 1.797345 1.858858e+00 1.755857 1.843021 1.813428 1.779338e+00 1.839366 1.885828 1.758940 1.905103e+00 1.868761 1.833543 1.862495 1.839236e+00 1.859126 1.771935 1.798120 1.834966e+00 1.926378 1.769362 1.780330 1.863423e+00 1.816746 1.859800 1.858632 1.861230e+00 1.861739 1.821208 1.903641 1.868295e+00 1.869715 1.956023 1.948787 1.836444e+00 1.882443 1.970864 1.892316 1.976607e+00 1.977978 1.929331 1.964194 1.991760e+00 1.963520 2.035747 2.013111 2.046285e+00 1.983970 1.994778 1.990330 2.015065e+00 2.065385 2.081588 2.065085 2.131435e+00 2.115969 2.138434 2.153341 2.180391e+00 2.193106 2.236964 2.282919 2.252693e+00 2.238587 2.191059 2.267738 2.241784e+00 2.342289 2.151900 2.237724 2.303994e+00 2.332274 2.367275 2.358107 2.418059e+00 2.364596 2.364589 2.337379 2.427246e+00 2.433025 2.329484 2.360527 2.251005e+00 2.247599 2.245524 2.352651 2.314008e+00 2.255970 2.078717 2.169410 2.131020e+00 2.111948 2.145458 2.144878 2.137957e+00 2.040323 2.042238 2.131555 2.098417e+00 2.100707 2.099429 2.043927 2.003597e+00 2.057684 1.939026 2.014692 1.941413e+00 1.988745 1.980777 1.976153 1.957614e+00 1.850294 1.931764 1.790931 1.815393e+00 1.894421 1.900252 1.805948 1.849047e+00 1.860455 1.809304 1.743895 1.882947e+00 1.803170 1.798856 1.758242 1.763000e+00 1.767062 1.763998 1.740339 1.745388e+00 1.726139 1.824970 1.763558 1.726617e+00 1.817404 1.630644 1.688494 1.704388e+00 1.732730 1.675195 1.726635 1.817798e+00 1.645824 1.680294 1.662411 1.757222e+00 1.611651 1.716836 1.729998 1.724099e+00 1.679690 1.696011 1.815325 1.617461e+00 1.672561 1.656352 1.599740 1.623267e+00 1.581269 1.644016 1.714850 1.710144e+00 1.644237 1.638651 1.717681 1.666770e+00 1.671278 1.665765 1.730104 1.587102e+00 1.640897 1.660458 1.631435 1.740047e+00 1.674822 1.618394 1.659751 1.657330e+00 1.660969 1.702492 1.674286 1.637917e+00 1.700936 1.693328 1.622190 1.630083e+00 1.682581 1.679586 1.630757 1.622191e+00 1.710382 1.728678 1.655384 1.683527e+00 1.735894 1.667742 1.699858 1.727738e+00 1.743914 1.636210 1.742050 1.728528e+00 1.648347 1.571622 1.795430 1.820068e+00 1.772781 1.794031 1.732103 1.704714e+00 1.717632 1.778728 1.782805 1.736796e+00 1.734450 1.799168 1.776900 1.842034e+00 1.817330 1.768408 1.760171 1.868212e+00 1.831367 1.844293 1.869875 1.861062e+00 1.895917 1.855599 1.961349 1.934964e+00 1.988294 2.010856 1.980950 1.965917e+00 2.026891 1.999204 1.966226 1.994831e+00 1.985376 2.066406 2.074045 2.105234e+00 2.051270 2.067960 2.165351 2.106706e+00 2.042854 2.104709 2.100639 2.077228e+00 2.222017 2.213804 2.219637 2.293306e+00 2.260165 2.278765 2.351577 2.299430e+00 2.330553 2.283794 2.407869 2.340282e+00 2.412482 2.331285 2.517141 2.445846e+00 2.437509 2.483655 2.555371 2.660895e+00 2.638468 2.612367 2.570905 2.707963e+00 2.690801 2.735787 2.740736 2.745420e+00 2.800169 2.929214 2.939211 2.946310e+00 2.988908 3.020219 3.048019 2.987844e+00 3.097821 3.170015 3.235587 3.283872e+00 3.307921 3.385538 3.508404 3.521631e+00 3.574830 3.657577 3.603077 3.728367e+00 3.863329 3.917705 4.001283 4.086119e+00 4.119654 4.268239 4.289006 4.372517e+00 4.574162 6.710624 6.552763 6.611593e+00 6.613045 6.576765 6.572026 6.598669e+00 6.460457 6.508139 6.507407 6.440473e+00 6.433589 6.380746 6.314703 6.511091e+00 6.334367 6.452541 6.320305 6.426254e+00 6.301001 6.265537 6.260848 6.369147e+00 6.274834 6.227239 6.257640 6.270326e+00 6.174604 6.318408 6.277554 6.260235e+00 6.316964 6.214890 6.248334 6.231191e+00 6.236500 4.839973 2.781795 -6.084942e-02 4.839973 2.781795 -0.060849
ODOM 4.820333 3.306441 -0.145948 0.000000 0.000000 0.000000
FLASER 361 2.343624 2.212913 2.309275 2.240320e+00 2.218704 2.248978 2.319612 2.297979e+00 2.191157 2.288561 2.307674 2.243783e+00 2.343564 2.314074 2.285126 2.237354e+00 2.272080 2.242306 2.285784 2.249763e+00 2.258190 2.286978 2.297459 2.235500e+00 2.332891 2.238380 2.288887 2.354878e+00 2.329008 2.252035 2.338134 2.267968e+00 2.331642 2.322932 2.337361 2.211486e+00 2.375976 2.316034 2.237717 2.312285e+00 2.317590 2.352628 2.338156 2.371465e+00 2.439400 2.357686 2.354587 2.337187e+00 2.315075 2.338390 2.411387 2.334432e+00 2.368719 2.409182 2.355917 2.340092e+00 2.327846 2.473628 2.433158 2.500624e+00 2.426669 2.461076 2.467644 2.491553e+00 2.487263 2.485712 2.461907 2.422591e+00 2.496520 2.463920 2.508033 2.545012e+00 2.600587 2.533234 2.468309 2.503927e+00 2.575688 2.593290 2.619310 2.658970e+00 2.653517 2.658645 2.699891 2.707478e+00 2.652429 2.738905 2.826633 2.765875e+00 2.739959 2.778541 2.862654 2.769580e+00 2.826743 2.745167 2.795434 2.894870e+00 2.773955 2.756167 2.672691 2.605796e+00 2.583340 2.644051 2.540702 2.537677e+00 2.465749 2.419343 2.379429 2.355286e+00 2.438791 2.429671 2.394792 2.346770e+00 2.260245 2.377101 2.280267 2.314834e+00 2.214168 2.218466 2.195130 2.198850e+00 2.195022 2.181839 2.158977 2.132397e+00 2.105591 2.120379 2.102810 2.029739e+00 2.056948 2.035015 2.062802 2.047648e+00 1.978880 2.002611 1.982209 2.050106e+00 1.867359 1.950616 1.896943 1.995256e+00 1.915031 1.935854 1.912614 1.869782e+00 1.884335 2.006457 1.922787 1.942852e+00 1.863366 1.886392 1.799420 1.797440e+00 1.778470 1.851488 1.803368 1.781868e+00 1.862600 1.889882 1.778251 1.816764e+00 1.661365 1.818954 1.762441 1.779199e+00 1.783773 1.729324 1.781664 1.768742e+00 1.772879 1.824899 1.704205 1.767430e+00 1.714170 1.755031 1.785623 1.693245e+00 1.721556 1.688056 1.702201 1.727854e+00 1.667457 1.676104 1.748692 1.763187e+00 1.719805 1.662202 1.711205 1.734655e+00 1.721182 1.711890 1.639532 1.588642e+00 1.694887 1.685511 1.714129 1.659774e+00 1.723546 1.681632 1.621792 1.792375e+00 1.684926 1.682377 1.655714 1.646995e+00 1.596329 1.728573 1.690172 1.689190e+00 1.663991 1.660999 1.634522 1.716857e+00 1.714706 1.751444 1.703558 1.693676e+00 1.703355 1.691512 1.765964 1.694647e+00 1.719449 1.717807 1.729091 1.733658e+00 1.645049 1.611953 1.744314 1.649438e+00 1.794770 1.680339 1.745484 1.736955e+00 1.796641 1.736841 1.733811 1.780382e+00 1.743831 1.817461 1.777635 1.790237e+00 1.816915 1.919465 1.819042 1.830724e+00 1.870189 1.792735 1.697639 1.821024e+00 1.795651 1.781558 1.875563 1.885925e+00 1.998827 1.854938 2.004632 1.918747e+00 1.912903 1.972886 1.912143 1.878565e+00 2.034008 1.892171 1.955540 2.026287e+00 1.992074 2.092661 1.994306 2.039530e+00 2.060094 2.069398 2.065172 2.122478e+00 2.101441 2.073380 2.125789 2.139686e+00 2.117934 2.149165 2.069620 2.225953e+00 2.332576 2.285213 2.226663 2.305704e+00 2.356339 2.306666 2.306887 2.410043e+00 2.449259 2.474509 2.426964 2.420158e+00 2.519366 2.394784 2.509185 2.513512e+00 2.440694 2.546992 2.663364 2.652110e+00 2.689013 2.772215 2.728971 2.766342e+00 2.807627 2.805797 2.846731 2.851811e+00 2.958892 2.897813 2.971501 3.032986e+00 3.064682 3.159550 3.104738 3.221727e+00 3.243833 3.258579 3.331780 3.387885e+00 3.517015 3.494820 3.563814 3.657072e+00 3.695503 3.681425 3.842885 3.810442e+00 3.983794 3.972648 6.270149 6.322168e+00 6.144245 6.216752 6.197704 6.166503e+00 6.104199 6.210295 6.013726 6.135947e+00 6.078738 5.977736 6.089722 6.018346e+00 5.942676 5.915268 5.910522 5.929020e+00 5.933624 5.996930 5.874509 5.815210e+00 5.851027 5.803467 5.910756 5.884639e+00 5.830999 5.885463 5.758217 5.814504e+00 5.760638 4.808228 3.280786 -1.615652e-01 4.808228 3.280786 -0.161565
ODOM 4.915300 3.910848 -0.086171 0.000000 0.000000 0.000000
FLASER 361 2.847404 2.775326 2.991452 2.796522e+00 2.776496 2.771947 2.782843 2.832041e+00 2.843210 2.690832 2.789245 2.794578e+00 2.792153 2.681280 2.743997 2.703148e+00 2.818721 2.728846 2.759301 2.809024e+00 2.730062 2.817128 2.796926 2.822946e+00 2.776787 2.841900 2.774720 2.792113e+00 2.864176 2.766241 2.856097 2.752637e+00 2.790208 2.829268 2.881287 2.795826e+00 2.856192 2.857754 2.842148 2.836478e+00 2.901162 2.936273 2.829573 2.890866e+00 2.959010 2.976007 2.897132 2.943502e+00 2.957213 2.935973 2.982359 2.974062e+00 2.938944 3.004150 3.034144 3.050864e+00 3.011954 3.022228 3.027019 3.099059e+00 3.116683 2.974011 3.088779 3.104333e+00 3.084990 3.214547 3.091834 3.204999e+00 3.253112 3.139561 3.317157 3.216705e+00 3.202099 3.347914 3.160037 3.021558e+00 3.067641 3.005338 3.019047 3.049524e+00 3.008342 2.975483 2.923846 2.796721e+00 2.762767 2.821540 2.764746 2.737405e+00 2.677305 2.658080 2.601617 2.593384e+00 2.523563 2.387204 2.507545 2.494575e+00 2.573738 2.532504 2.433800 2.329110e+00 2.363277 2.350441 2.396616 2.328765e+00 2.369581 2.274369 2.322884 2.278923e+00 2.278602 2.205969 2.140343 2.215092e+00 2.244599 2.120114 2.029069 2.119458e+00 2.145749 2.139871 2.107899 2.077178e+00 2.088208 2.131798 2.100787 1.987882e+00 2.022044 2.015128 2.080805 2.000784e+00 2.033791 2.041056 1.959650 1.997440e+00 1.963777 1.825838 2.037398 1.893689e+00 1.844316 1.944335 1.811561 1.827673e+00 1.837540 1.838722 1.854541 1.792248e+00 1.836140 1.840804 1.780477 1.736424e+00 1.803741 1.866833 1.761843 1.761302e+00 1.840598 1.743050 1.666444 1.743000e+00 1.791368 1.789031 1.799233 1.794789e+00 1.723762 1.751812 1.728752 1.741668e+00 1.816644 1.712578 1.664806 1.689364e+00 1.710507 1.704368 1.781110 1.737725e+00 1.711392 1.779646 1.723226 1.704792e+00 1.730791 1.706845 1.642616 1.747225e+00 1.621966 1.703140 1.714476 1.660003e+00 1.758521 1.721931 1.708406 1.630055e+00 1.656724 1.598008 1.676043 1.550552e+00 1.709054 1.657529 1.750991 1.661377e+00 1.699430 1.722181 1.623170 1.594670e+00 1.614244 1.708973 1.636833 1.668873e+00 1.683165 1.780946 1.760024 1.636999e+00 1.671027 1.609526 1.704416 1.775526e+00 1.687627 1.853800 1.843634 1.788622e+00 1.693135 1.723400 1.727945 1.723637e+00 1.762611 1.805903 1.754299 1.720631e+00 1.679783 1.724074 1.779324 1.725475e+00 1.859926 1.826464 1.785757 1.744889e+00 1.787241 1.843006 1.827532 1.776788e+00 1.860891 1.796687 1.729758 1.842866e+00 1.893823 1.847317 1.992088 1.862426e+00 1.854181 2.011227 1.881181 1.878898e+00 1.838934 1.916125 2.012808 1.922352e+00 1.922335 1.992149 1.953768 2.004606e+00 1.887915 2.038051 2.062933 2.012384e+00 2.095570 2.117503 2.088067 1.986002e+00 2.062361 2.100637 2.078560 2.134598e+00 2.102493 2.230988 2.169889 2.176548e+00 2.222253 2.264878 2.267269 2.217351e+00 2.200380 2.369018 2.346992 2.380475e+00 2.296714 2.408373 2.336286 2.494691e+00 2.440924 2.464677 2.468164 2.487615e+00 2.459104 2.581613 2.664174 2.670328e+00 2.614743 2.633627 2.707080 2.735793e+00 2.854290 2.736661 2.807516 2.839611e+00 2.921769 2.860372 3.036080 2.991585e+00 3.072567 3.062003 3.207643 3.185877e+00 3.122887 3.260383 3.383001 3.423504e+00 3.380051 3.498971 3.631243 3.610079e+00 5.836825 5.826085 5.789029 5.794139e+00 5.796499 5.740989 5.761585 5.696923e+00 5.567146 5.674786 5.655320 5.606610e+00 5.611914 5.582522 5.582516 5.505360e+00 5.498119 5.487057 5.478523 5.489480e+00 5.496987 5.541284 5.534188 5.416227e+00 5.410483 5.372143 5.398075 5.326656e+00 5.366876 5.379235 5.356075 5.389866e+00 5.271782 5.344072 5.502295 5.266667e+00 5.215710 5.289850 5.352810 5.303699e+00 5.331313 5.243408 5.157676 5.211789e+00 5.290149 4.816751 3.780713 -9.443186e-02 4.816751 3.780713 -0.094432
ODOM 4.998401 4.192571 0.207431 0.000000 0.000000 0.000000
FLASER 361 3.364686 3.394635 3.272054 3.334979e+00 3.459292 3.314305 3.249895 3.360856e+00 3.410530 3.449681 3.332145 3.445658e+00 3.407318 3.431024 3.364176 3.384082e+00 3.456191 3.448024 3.423115 3.476497e+00 3.528121 3.517182 3.592150 3.490473e+00 3.558241 3.542555 3.591166 3.550639e+00 3.442099 3.477440 3.298005 3.380685e+00 3.220398 3.247473 3.229808 3.177557e+00 3.095593 2.953000 3.028280 2.938176e+00 2.911928 2.851203 2.744805 2.787327e+00 2.765877 2.711860 2.705144 2.623848e+00 2.667250 2.638222 2.486305 2.606037e+00 2.443559 2.397711 2.373599 2.368079e+00 2.298948 2.370184 2.319108 2.233559e+00 2.180565 2.297806 2.311217 2.230771e+00 2.241300 2.134980 2.139251 2.094064e+00 2.157984 2.057209 2.111976 2.058395e+00 2.041377 2.054596 1.905864 1.906307e+00 1.994765 1.919797 1.953449 2.031813e+00 1.885931 1.864009 1.933284 1.937470e+00 1.736657 1.839077 1.903184 1.818451e+00 1.789824 1.881772 1.824638 1.842949e+00 1.820532 1.689722 1.674383 1.744442e+00 1.764759 1.820496 1.790869 1.778157e+00 1.667112 1.637078 1.750785 1.721672e+00 1.644661 1.699065 1.713326 1.588081e+00 1.571419 1.644720 1.611201 1.601442e+00 1.693175 1.656686 1.650537 1.603294e+00 1.566333 1.527346 1.549611 1.572118e+00 1.598875 1.567784 1.531605 1.628076e+00 1.608238 1.518243 1.497976 1.560360e+00 1.494921 1.586130 1.566570 1.612364e+00 1.547012 1.586426 1.599841 1.496535e+00 1.603512 1.456276 1.543129 1.549411e+00 1.518471 1.421311 1.555311 1.510371e+00 1.379482 1.462637 1.556265 1.563579e+00 1.484711 1.509021 1.460959 1.489401e+00 1.496918 1.524049 1.457189 1.582224e+00 1.522956 1.492715 1.442531 1.461480e+00 1.588609 1.534615 1.402355 1.415075e+00 1.447865 1.431291 1.473869 1.618253e+00 1.522920 1.474769 1.474052 1.538077e+00 1.465472 1.536429 1.543624 1.520104e+00 1.496755 1.595358 1.461005 1.463213e+00 1.556955 1.574892 1.488252 1.584489e+00 1.500600 1.512729 1.511688 1.571933e+00 1.523516 1.531477 1.521134 1.501742e+00 1.498550 1.610110 1.600258 1.590915e+00 1.491478 1.639359 1.602841 1.592265e+00 1.538290 1.527230 1.581286 1.582165e+00 1.713427 1.610031 1.629327 1.722458e+00 1.673407 1.714346 1.636912 1.585864e+00 1.691693 1.793974 1.677304 1.777957e+00 1.680939 1.766594 1.697424 1.705669e+00 1.825561 1.779934 1.807035 1.793951e+00 1.848648 1.734940 1.900476 1.873620e+00 1.784340 1.868764 1.873556 1.872891e+00 1.899385 1.875512 1.890200 1.982848e+00 1.910128 1.947024 2.021299 1.945118e+00 2.114309 1.903808 2.038270 2.058626e+00 1.981107 1.990314 2.129992 2.082151e+00 2.127046 2.199079 2.219939 2.146788e+00 2.314704 2.189666 2.231442 2.284533e+00 2.315273 2.348984 2.353370 2.384503e+00 2.348234 2.468116 2.411235 2.461869e+00 2.497774 2.605450 2.562299 2.602377e+00 2.735303 2.707146 2.629846 2.673503e+00 2.871467 2.823775 2.855416 2.875008e+00 2.918975 2.941820 3.064621 3.172769e+00 3.156329 5.473661 5.346319 5.364915e+00 5.362476 5.241128 5.330695 5.219191e+00 5.234995 5.213267 5.191250 5.252164e+00 5.199394 5.056824 5.052818 5.025172e+00 5.042291 5.091848 4.992516 5.047219e+00 5.019035 4.918572 4.987299 5.000318e+00 5.032778 4.923566 4.967490 4.877372e+00 4.893626 4.952097 4.868608 4.883835e+00 4.875053 4.905535 4.906896 4.897668e+00 4.897716 4.893402 4.782913 4.789454e+00 4.864217 4.722929 4.824609 4.689012e+00 4.817968 4.742575 4.762700 4.719243e+00 4.756323 4.807292 4.741075 4.845323e+00 4.799544 4.805077 4.800183 4.757060e+00 4.807915 4.784025 4.658898 4.797670e+00 4.795689 4.714143 4.782776 4.799549e+00 4.689315 4.715202 4.857352 4.750917e+00 4.803240 4.824310 4.463102 4.265619e+00 4.031910 3.763788 3.482868 3.226209e+00 3.030071 3.034542 2.864315 2.678305e+00 2.527072 5.001548 4.245310 1.979221e-01 5.001548 4.245310 0.197922
ODOM 4.954702 4.745718 0.125482 0.000000 0.000000 0.000000
FLASER 361 3.773298 3.746071 3.830493 3.774573e+00 3.761246 3.702028 3.815155 3.786699e+00 3.839114 3.817575 3.742816 3.880565e+00 3.669888 3.889353 3.827448 3.815325e+00 3.843854 3.831377 3.811969 3.810707e+00 3.972169 3.897788 3.889922 3.971565e+00 3.918540 4.007447 3.895973 3.968528e+00 3.932709 4.030114 4.032610 3.963976e+00 4.100661 3.962605 4.070344 4.084647e+00 3.926947 3.816406 3.749212 3.805231e+00 3.655354 3.652948 3.584323 3.560079e+00 3.510441 3.392857 3.422434 3.295724e+00 3.256763 3.163450 3.194864 3.149623e+00 3.051229 3.042801 3.104782 3.036382e+00 2.915006 2.865323 2.936105 2.823609e+00 2.805834 2.747891 2.707966 2.784423e+00 2.681943 2.671654 2.642457 2.640376e+00 2.475164 2.470957 2.557622 2.458451e+00 2.454745 2.465288 2.413310 2.407962e+00 2.339952 2.404596 2.334979 2.444355e+00 2.387601 2.251360 2.289395 2.228053e+00 2.242807 2.234559 2.133058 2.190906e+00 2.199374 2.085825 2.110466 2.147271e+00 2.128911 2.045835 2.112359 2.052221e+00 1.918532 2.036666 1.962108 1.966299e+00 2.062165 1.999179 2.021425 1.949081e+00 1.998576 1.922204 2.006277 2.036914e+00 1.864055 1.927360 1.926148 1.918547e+00 1.873333 1.859579 1.867731 1.837120e+00 1.796508 1.879246 1.733714 1.926363e+00 1.774466 1.838408 1.855878 1.817290e+00 1.839213 1.723926 1.839140 1.818499e+00 1.795323 1.766672 1.744848 1.769900e+00 1.705075 1.713036 1.722472 1.708142e+00 1.718674 1.691163 1.730215 1.697463e+00 1.727535 1.630248 1.622957 1.649937e+00 1.722013 1.659393 1.654366 1.719102e+00 1.664787 1.694385 1.657252 1.578453e+00 1.666654 1.726767 1.726925 1.711545e+00 1.724265 1.721935 1.709385 1.655409e+00 1.704486 1.695697 1.621523 1.703877e+00 1.614363 1.648885 1.768557 1.651967e+00 1.647092 1.607915 1.733294 1.723555e+00 1.750208 1.669892 1.624234 1.626163e+00 1.678311 1.719019 1.688524 1.669194e+00 1.707414 1.655982 1.649413 1.719966e+00 1.724000 1.694390 1.763800 1.656583e+00 1.736802 1.656881 1.719388 1.729342e+00 1.653786 1.619028 1.756885 1.685790e+00 1.735178 1.710873 1.725532 1.793400e+00 1.726594 1.707606 1.751131 1.696071e+00 1.708744 1.738361 1.752169 1.767425e+00 1.793425 1.714205 1.757725 1.826919e+00 1.730785 1.755782 1.787290 1.695321e+00 1.802391 1.863844 1.853363 1.902352e+00 1.801884 1.987947 1.900135 1.876603e+00 1.862479 1.927875 1.946721 1.943411e+00 1.864397 1.911365 1.975891 1.904043e+00 1.955129 2.044818 1.955719 2.030701e+00 1.971886 2.092519 2.029757 2.002442e+00 2.066625 2.137266 2.142797 2.107929e+00 2.135889 2.168184 2.130284 2.203206e+00 2.201276 2.225500 2.126050 2.304988e+00 2.298615 2.225660 2.274655 2.240953e+00 2.394605 2.408731 2.425858 2.353997e+00 2.522451 2.374092 2.455077 2.526414e+00 2.461956 2.593238 2.631679 2.517321e+00 2.603999 2.716771 2.601402 2.785034e+00 2.780926 2.743538 2.847179 5.201245e+00 5.268400 5.193612 5.258566 5.119946e+00 5.154411 5.015879 5.043577 4.988074e+00 5.066507 5.072704 4.992202 4.884205e+00 4.869133 4.894795 4.899042 4.827609e+00 4.842837 4.787846 4.723363 4.767354e+00 4.829179 4.606516 4.730005 4.663269e+00 4.579530 4.654360 4.595883 4.659625e+00 4.597723 4.536013 4.451560 4.550962e+00 4.568208 4.564405 4.570063 4.483727e+00 4.471902 4.436566 4.400088 4.362873e+00 4.481206 4.479992 4.358607 4.391610e+00 4.355852 4.389617 4.440365 4.378682e+00 4.452217 4.256041 4.348229 4.445670e+00 4.267137 4.303779 4.299634 4.301964e+00 4.289164 4.347391 4.243365 4.315059e+00 4.359295 4.341274 4.318168 4.184368e+00 4.327035 4.374704 4.262909 4.351731e+00 4.280193 4.293324 4.312971 4.279285e+00 4.297515 4.253542 4.245441 4.258071e+00 4.308988 4.342938 4.317514 4.180587e+00 3.959867 3.684892 3.414592 3.043923e+00 2.799033 4.832376 4.715821 1.182441e-01 4.832376 4.715821 0.118244
ODOM 5.076606 5.217102 1.465923 0.000000 0.000000 0.000000
FLASER 361 1.547684 1.576969 1.570739 1.610165e+00 1.608457 1.668967 1.575073 1.671601e+00 1.578390 1.568733 1.588552 1.587344e+00 1.665393 1.673767 1.558420 1.649295e+00 1.605495 1.660247 1.649121 1.635935e+00 1.598118 1.579551 1.569240 1.600155e+00 1.669026 1.613165 1.631729 1.636614e+00 1.601594 1.634824 1.642423 1.664744e+00 1.671031 1.659969 1.582565 1.660653e+00 1.640898 1.635853 1.670383 1.649236e+00 1.700146 1.694334 1.574208 1.605517e+00 1.671336 1.629248 1.698864 1.697577e+00 1.643747 1.636735 1.728348 1.628774e+00 1.650384 1.700964 1.689417 1.765343e+00 1.757491 1.747740 1.736630 1.802814e+00 1.669851 1.669407 1.749010 1.769371e+00 1.741274 1.761808 1.875541 1.699469e+00 1.795310 1.856952 1.703446 1.867129e+00 1.937429 1.824842 1.946250 1.884460e+00 1.849438 1.877308 1.880634 1.960673e+00 2.011056 1.882582 1.976105 2.013516e+00 1.920559 1.896356 1.984600 1.953030e+00 2.080558 2.079507 1.959297 2.010381e+00 2.114758 2.069681 2.135068 2.086243e+00 2.157717 2.157010 2.255627 2.210541e+00 2.190328 2.235974 2.236129 2.210057e+00 2.303448 2.345144 2.314007 2.320104e+00 2.285649 2.348791 2.412368 5.015568e+00 5.048003 4.958712 4.995238 4.989786e+00 4.823054 4.793338 4.870403 4.772060e+00 4.770107 4.674005 4.746201 4.674449e+00 4.540649 4.593525 4.585477 4.590049e+00 4.461591 4.495090 4.489567 4.502936e+00 4.478704 4.367246 4.473051 4.367014e+00 4.268807 4.232697 4.271564 4.234147e+00 4.338966 4.249616 4.190372 4.290606e+00 4.168411 4.157663 4.198529 4.180416e+00 4.171958 4.058699 4.144880 4.009597e+00 4.054237 4.098375 4.116689 4.051069e+00 4.086532 4.039346 3.946711 3.978147e+00 4.005984 3.904388 3.904825 3.941637e+00 3.919510 3.982150 3.908468 3.849584e+00 3.884024 3.888734 3.765802 3.945191e+00 3.861468 3.814667 3.889273 3.803549e+00 3.803788 3.887684 3.834530 3.895606e+00 3.800851 3.882740 3.959767 3.816807e+00 3.897432 3.819884 3.837959 3.789644e+00 3.822601 3.862295 3.827504 3.853862e+00 3.790211 3.785325 3.922365 3.682252e+00 3.758115 3.846356 3.665360 3.854406e+00 3.775799 3.824792 3.846273 3.839646e+00 3.795576 3.860018 3.661950 3.452284e+00 3.111205 2.932939 2.730378 2.549689e+00 2.491608 2.271576 2.243647 2.181279e+00 2.018719 1.974066 1.981658 1.926324e+00 1.702846 1.586871 1.587755 1.488846e+00 1.467665 1.403415 1.467159 1.329369e+00 1.327479 1.318577 1.291634 1.200886e+00 1.245649 1.222503 1.231758 1.082907e+00 1.128435 1.010168 1.146564 1.165188e+00 1.073451 0.925825 0.940293 9.424816e-01 0.970388 0.913268 0.959052 9.097553e-01 0.904196 0.900243 0.801383 8.416489e-01 0.897160 0.761047 0.808517 7.268710e-01 0.703059 0.767394 0.712768 7.472665e-01 0.759573 0.771649 0.667276 6.925488e-01 0.622703 0.674750 0.655122 6.443813e-01 0.600535 0.736901 0.630940 6.110503e-01 0.594164 0.660017 0.615962 5.983423e-01 0.629095 0.654193 0.575029 5.743733e-01 0.573877 0.580936 0.490530 5.457668e-01 0.581698 0.564711 0.513388 4.982469e-01 0.475797 0.622258 0.557288 5.797564e-01 0.542634 0.562206 0.506303 5.376655e-01 0.461227 0.514451 0.552995 5.126953e-01 0.404189 0.449861 0.472141 4.054527e-01 0.513019 0.573687 0.463078 3.745550e-01 0.448860 0.440654 0.405672 5.400339e-01 0.443766 0.401202 0.468451 4.576600e-01 0.413959 0.458883 0.412348 3.604153e-01 0.466642 0.322460 0.495390 4.551193e-01 0.497748 0.436022 0.386351 4.084897e-01 0.471927 0.530084 0.340141 3.891131e-01 0.399797 0.431513 0.506371 4.331262e-01 0.487167 0.366327 0.323900 4.292524e-01 0.354735 0.403740 0.461348 4.288380e-01 0.430205 0.399134 0.396979 4.414380e-01 0.507344 0.448403 0.353380 4.854733e-01 0.375212 0.387595 0.396411 4.059538e-01 0.397471 0.397451 0.349015 3.966606e-01 0.401941 4.900230 5.188970 1.454553e+00 4.900230 5.188970 1.454553
ODOM 5.233818 5.320979 -0.690892 0.000000 0.000000 0.000000
FLASER 361 0.827877 0.864442 0.869468 8.781039e-01 0.939081 0.948372 1.005817 8.943890e-01 0.939020 0.925289 0.877231 1.086014e+00 0.892331 0.994711 1.045956 9.055699e-01 1.172694 0.920811 1.053961 1.104678e+00 1.102486 1.173475 1.050728 1.164788e+00 1.228962 1.254461 1.071561 1.151222e+00 1.333531 1.295125 1.334351 1.386847e+00 1.335115 1.318077 1.427224 1.507392e+00 1.457451 1.495137 1.530195 1.574865e+00 1.662623 1.699357 1.743374 1.740576e+00 1.824070 1.801370 1.972726 1.976639e+00 2.074365 2.178833 2.181179 2.250126e+00 4.381686 4.313248 4.377343 4.233546e+00 4.354406 4.265257 4.317779 4.412920e+00 4.222189 4.278898 4.257274 4.338662e+00 4.228529 4.299978 4.252636 4.234129e+00 4.198024 4.288441 4.262755 4.157081e+00 4.327875 4.295865 4.220080 4.287381e+00 4.112950 4.243760 4.206680 4.295737e+00 4.291604 4.244431 4.312490 4.203790e+00 4.164857 4.328956 4.165865 4.222303e+00 4.230579 4.277162 4.182116 4.245685e+00 4.271799 4.378539 4.292952 4.356661e+00 4.339451 4.304633 4.290773 4.258068e+00 4.284015 4.354375 4.336001 4.299853e+00 4.402993 4.342701 4.331789 4.396152e+00 4.427006 4.374216 4.321619 4.363301e+00 4.539103 4.450050 4.457657 4.532855e+00 4.439828 4.461079 4.285453 4.290981e+00 4.119743 3.979991 3.994559 3.936379e+00 3.833824 3.707474 3.585681 3.532779e+00 3.605141 3.433197 3.301024 3.377445e+00 3.191432 3.179310 3.210906 3.068714e+00 3.115735 2.956780 2.962506 2.880902e+00 2.839897 2.856786 2.829420 2.733373e+00 2.775086 2.673343 2.641978 2.616117e+00 2.599254 2.602231 2.549225 2.514150e+00 2.491365 2.440109 2.311727 2.432880e+00 2.253579 2.422202 2.288227 2.377910e+00 2.187304 2.163313 2.163970 2.236824e+00 2.110838 2.118159 2.128170 2.182862e+00 2.040943 2.016000 2.068103 2.048615e+00 2.066748 1.940115 2.029073 1.940210e+00 2.017908 1.950929 1.851232 1.906884e+00 1.827217 1.873542 1.920556 1.891036e+00 1.887302 1.805532 1.760847 1.787446e+00 1.710678 1.812505 1.797617 1.724782e+00 1.719881 1.756906 1.697473 1.683194e+00 1.673057 1.610821 1.719096 1.678868e+00 1.669752 1.597031 1.651367 1.641651e+00 1.713412 1.676647 1.611152 1.660183e+00 1.580602 1.617989 1.601866 1.615381e+00 1.625456 1.542416 1.634092 1.644396e+00 1.584761 1.473351 1.542171 1.555868e+00 1.493475 1.479020 1.596542 1.543569e+00 1.521354 1.457722 1.573454 1.576119e+00 1.472852 1.493296 1.510355 1.529574e+00 1.537297 1.537285 1.437693 1.516058e+00 1.491159 1.459583 1.480742 1.431804e+00 1.446198 1.584699 1.486313 1.501570e+00 1.405785 1.447466 1.483649 1.497066e+00 1.443292 1.455399 1.427574 1.507181e+00 1.518651 1.393736 1.414972 1.480180e+00 1.502329 1.433138 1.478889 1.508310e+00 1.360063 1.377217 1.494229 1.475188e+00 1.478617 1.394631 1.385990 1.411195e+00 1.497734 1.473014 1.491903 1.475039e+00 1.515263 1.451220 1.418216 1.499992e+00 1.515721 1.515802 1.487516 1.497821e+00 1.504947 1.437570 1.456898 1.435350e+00 1.526120 1.436975 1.469144 1.548095e+00 1.427701 1.569435 1.525548 1.546783e+00 1.461848 1.515371 1.641630 1.487533e+00 1.531992 1.550257 1.567169 1.616926e+00 1.566647 1.587885 1.579348 1.559747e+00 1.664579 1.560433 1.671245 1.597708e+00 1.534433 1.500540 1.659801 1.641200e+00 1.571615 1.584257 1.594453 1.620244e+00 1.673560 1.673515 1.724588 1.666547e+00 1.655950 1.763154 1.700572 1.755073e+00 1.762113 1.682268 1.757393 1.683790e+00 1.840282 1.739344 1.818072 1.781812e+00 1.877294 1.860222 1.968876 1.818706e+00 1.793091 1.937809 1.877600 1.883394e+00 1.880146 1.984667 1.936338 1.960402e+00 1.945015 2.020392 2.068955 1.976218e+00 2.026537 1.990881 2.089434 2.054447e+00 2.086007 2.128684 2.100463 2.218150e+00 2.266168 2.294216 2.195822 2.335499e+00 4.938877 5.038815 5.240539 -6.864035e-01 5.038815 5.240539 -0.686403
ODOM 4.972727 5.620199 -0.410861 0.000000 0.000000 0.000000
FLASER 361 1.508415 1.505980 1.599465 1.648428e+00 1.615887 1.761113 1.775888 1.795685e+00 1.796326 1.958052 2.019382 1.912135e+00 2.011455 2.214414 2.215328 2.254857e+00 2.393596 2.464201 2.530305 2.602965e+00 4.698634 4.619110 4.711477 4.605791e+00 4.623069 4.658690 4.633451 4.599939e+00 4.640418 4.603830 4.678846 4.564580e+00 4.673226 4.642932 4.681986 4.536103e+00 4.563986 4.579896 4.525123 4.598326e+00 4.578794 4.670184 4.619579 4.518280e+00 4.560119 4.524281 4.508811 4.532749e+00 4.531565 4.572619 4.556276 4.593168e+00 4.536705 4.531542 4.586815 4.633369e+00 4.661716 4.684262 4.567532 4.650643e+00 4.570715 4.647383 4.666336 4.589630e+00 4.620080 4.525066 4.738672 4.718876e+00 4.738320 4.662001 4.630637 4.678225e+00 4.763651 4.640485 4.692078 4.687711e+00 4.808222 4.670293 4.760859 4.774295e+00 4.669709 4.567089 4.509477 4.365638e+00 4.309628 4.199854 4.097628 3.985102e+00 3.902631 3.861024 3.709613 3.687239e+00 3.513745 3.521368 3.503480 3.385970e+00 3.243099 3.235288 3.179356 3.116974e+00 3.020988 3.034772 3.002632 2.917218e+00 2.880794 2.896978 2.710591 2.753436e+00 2.670147 2.536981 2.611030 2.590262e+00 2.597309 2.545797 2.464760 2.420789e+00 2.388437 2.416199 2.219053 2.438257e+00 2.243924 2.337420 2.212563 2.240733e+00 2.165536 2.120683 2.155317 2.221820e+00 2.189463 2.119557 2.150787 2.028207e+00 2.120862 1.987721 2.055633 1.935422e+00 1.997322 1.882239 1.967235 1.919093e+00 1.887712 1.851233 1.901962 1.922958e+00 1.881971 1.823434 1.835084 1.799518e+00 1.835153 1.928490 1.760075 1.730430e+00 1.722492 1.774953 1.712173 1.717687e+00 1.672927 1.624901 1.622272 1.604750e+00 1.650358 1.662705 1.776555 1.656996e+00 1.653897 1.546415 1.533061 1.634054e+00 1.601495 1.489451 1.626864 1.560694e+00 1.601765 1.630722 1.530698 1.538869e+00 1.532486 1.483698 1.568349 1.486272e+00 1.481935 1.533366 1.462932 1.486899e+00 1.443257 1.569784 1.474738 1.497384e+00 1.461297 1.469135 1.470923 1.446017e+00 1.422295 1.380915 1.502597 1.465744e+00 1.420663 1.499140 1.412169 1.389424e+00 1.418170 1.498100 1.450155 1.337289e+00 1.393781 1.431625 1.437358 1.424911e+00 1.361341 1.403507 1.334138 1.390064e+00 1.347699 1.479500 1.430702 1.359441e+00 1.396438 1.384885 1.395747 1.369204e+00 1.401267 1.398524 1.444264 1.291288e+00 1.428517 1.467186 1.440489 1.440822e+00 1.466668 1.384963 1.481874 1.412468e+00 1.466511 1.427145 1.353015 1.425776e+00 1.413576 1.415614 1.358943 1.346948e+00 1.510676 1.413928 1.450134 1.354727e+00 1.345633 1.416164 1.433149 1.344169e+00 1.480987 1.380042 1.432226 1.386265e+00 1.431598 1.465006 1.390883 1.385878e+00 1.424371 1.362260 1.477860 1.448404e+00 1.473094 1.512447 1.469383 1.484709e+00 1.402904 1.504909 1.499985 1.555739e+00 1.483446 1.458533 1.559770 1.512297e+00 1.544763 1.511748 1.533980 1.470848e+00 1.625276 1.535146 1.577367 1.562141e+00 1.455171 1.532345 1.611147 1.515150e+00 1.680038 1.582446 1.568691 1.686036e+00 1.690349 1.643675 1.618261 1.677847e+00 1.608215 1.684434 1.620820 1.667220e+00 1.723267 1.663511 1.730634 1.757764e+00 1.628502 1.732849 1.823807 1.759076e+00 1.733483 1.825704 1.863520 1.861872e+00 1.802411 1.854806 1.951721 1.935369e+00 1.868160 1.985772 1.959738 1.986286e+00 2.043481 1.995075 4.810589 4.785474e+00 4.795995 4.646935 4.573372 4.581718e+00 4.548315 4.512047 4.466037 4.490442e+00 4.417056 4.394626 4.312201 4.348730e+00 4.245490 4.356539 4.278861 4.241808e+00 4.131509 4.132352 4.078865 4.089276e+00 4.088145 4.046076 4.026833 3.947123e+00 4.032447 3.966978 3.932210 3.969026e+00 3.981807 3.926387 4.013841 3.883064e+00 3.899655 3.795751 3.795192 3.789664e+00 3.835434 3.717551 3.737549 3.719030e+00 3.743291 5.104272 5.566441 -4.002142e-01 5.104272 5.566441 -0.400214
ODOM 4.840032 6.179960 -0.444570 0.000000 0.000000 0.000000
FLASER 361 0.854798 0.849086 0.875267 8.744440e-01 0.941041 0.972138 0.943495 9.926089e-01 1.005613 0.982960 1.084393 1.061174e+00 1.098328 1.160502 1.109117 1.210300e+00 1.268196 1.275598 1.191172 1.280026e+00 1.399048 1.425325 1.487237 1.573792e+00 1.563319 1.670354 1.799402 1.703073e+00 1.889034 1.897068 2.051631 2.101153e+00 2.372074 2.444327 2.488827 2.666694e+00 2.938346 4.996882 5.001571 4.988140e+00 4.990865 4.990064 4.888778 4.923035e+00 5.003183 4.952251 4.958916 4.971350e+00 5.021051 4.988565 4.986525 5.003623e+00 5.000025 5.065812 4.973793 4.972133e+00 5.094513 4.966720 4.958713 5.003958e+00 5.033555 5.074608 5.049994 5.094684e+00 4.998042 4.996160 5.102013 5.105135e+00 5.105500 5.088200 5.107531 5.087876e+00 5.075671 5.164581 5.032950 5.142570e+00 5.172725 5.204814 5.137991 5.127834e+00 5.182364 5.155243 5.150576 5.216730e+00 5.221418 5.238754 5.280060 5.217904e+00 5.018683 4.917713 4.845825 4.635489e+00 4.552229 4.469602 4.471594 4.342103e+00 4.214600 4.024550 4.006899 4.023938e+00 3.858961 3.897805 3.794186 3.685963e+00 3.660440 3.544224 3.577031 3.534700e+00 3.512370 3.374452 3.312736 3.217159e+00 3.235344 3.189907 3.015583 3.151902e+00 3.068546 2.978380 2.882748 2.952782e+00 2.799073 2.811892 2.844542 2.776211e+00 2.734486 2.692162 2.661608 2.564490e+00 2.499639 2.616683 2.571554 2.516905e+00 2.530057 2.450849 2.427674 2.425782e+00 2.378791 2.389126 2.293490 2.267336e+00 2.339358 2.316646 2.337954 2.255826e+00 2.231203 2.256776 2.190864 2.253948e+00 2.206246 2.223656 2.113311 2.161619e+00 2.166192 2.066065 2.059277 2.160632e+00 2.123564 1.992697 2.020687 1.997962e+00 2.025614 1.927649 1.980089 1.916982e+00 1.975050 1.944304 1.975156 1.944056e+00 1.867301 1.870874 1.826735 1.861356e+00 1.804196 1.949084 1.844689 1.800423e+00 1.821528 1.747337 1.836846 1.852703e+00 1.766456 1.794994 1.775632 1.854701e+00 1.733891 1.860433 1.728574 1.769868e+00 1.759793 1.777950 1.693189 1.657380e+00 1.659016 1.730863 1.735640 1.794074e+00 1.626396 1.662618 1.685185 1.744322e+00 1.678606 1.648416 1.649170 1.733841e+00 1.630032 1.719084 1.655379 1.750994e+00 1.723268 1.632007 1.633665 1.679481e+00 1.644999 1.633000 1.630421 1.648014e+00 1.585600 1.621198 1.589362 1.620811e+00 1.592219 1.560280 1.689884 1.692430e+00 1.622286 1.651761 1.684391 1.689090e+00 1.590314 1.652680 1.698579 1.563241e+00 1.626488 1.664755 1.612884 1.604846e+00 1.648569 1.640855 1.614407 1.651913e+00 1.622452 1.637166 1.680015 1.682109e+00 1.795456 1.727491 1.690620 1.790340e+00 1.689415 1.655921 1.606505 1.636484e+00 1.683750 1.634547 1.685978 1.602310e+00 1.699379 1.631005 1.691565 1.637169e+00 1.713528 1.721759 1.597970 1.669687e+00 1.684227 1.724628 1.634603 1.743449e+00 1.720522 1.688263 1.751719 1.791460e+00 1.752587 1.807942 1.822812 1.710406e+00 1.808866 1.818224 1.778424 1.840624e+00 1.799534 1.713377 1.896552 1.818591e+00 1.837790 1.930102 1.839391 1.822642e+00 1.905255 1.877579 1.841004 1.903451e+00 1.903139 5.466496 5.478962 5.482709e+00 5.491439 5.460964 5.399843 5.384742e+00 5.226144 5.137367 5.125144 5.081181e+00 4.959982 4.999127 4.823143 4.848463e+00 4.841130 4.811214 4.616409 4.559054e+00 4.593769 4.562270 4.542781 4.469974e+00 4.371375 4.354951 4.380585 4.352074e+00 4.264539 4.252270 4.147541 4.274734e+00 4.091145 4.046139 4.010480 4.050024e+00 4.044620 3.969657 3.845060 3.925203e+00 3.917981 3.870732 3.831473 3.755983e+00 3.853427 3.718350 3.775551 3.733169e+00 3.582541 3.588769 3.547276 3.672827e+00 3.699066 3.588193 3.553216 3.466937e+00 3.385717 3.446371 3.541104 3.487007e+00 3.434853 3.404200 3.364226 3.342696e+00 3.342823 3.387820 3.345366 3.344609e+00 3.369251 4.860909 6.003218 -4.391679e-01 4.860909 6.003218 -0.439168
ODOM 4.917455 6.372557 0.038529 0.000000 0.000000 0.000000
FLASER 361 5.337809 5.445938 5.459194 5.312915e+00 5.426072 5.411917 5.395670 5.349416e+00 5.393834 5.468699 5.536481 5.393912e+00 5.432865 5.503408 5.516284 5.587814e+00 5.550505 5.477064 5.493367 5.491301e+00 5.541165 5.410126 5.230450 5.159580e+00 5.026686 4.791469 4.675178 4.472094e+00 4.463079 4.330063 4.183111 4.145444e+00 3.922801 3.826268 3.743223 3.767911e+00 3.654139 3.547190 3.498813 3.324138e+00 3.312665 3.249770 3.110588 3.094871e+00 3.131094 2.936617 2.952596 2.912247e+00 2.886625 2.786034 2.752875 2.661978e+00 2.648089 2.630929 2.557045 2.561236e+00 2.594189 2.486195 2.525296 2.452984e+00 2.417035 2.399132 2.333114 2.316494e+00 2.335725 2.296360 2.266106 2.141523e+00 2.126666 2.149810 2.094088 2.080941e+00 2.008486 2.129370 2.033012 2.027838e+00 1.969475 1.978562 1.882625 1.968794e+00 1.959156 1.984377 1.810950 1.941698e+00 1.872127 1.807462 1.836790 1.746770e+00 1.813554 1.725772 1.824052 1.789466e+00 1.667897 1.833926 1.670602 1.695374e+00 1.638116 1.734657 1.701230 1.637789e+00 1.536235 1.631977 1.597273 1.609077e+00 1.705337 1.630249 1.503166 1.611308e+00 1.550659 1.557395 1.526329 1.558627e+00 1.464394 1.539952 1.516734 1.532339e+00 1.492371 1.477725 1.496145 1.487843e+00 1.428192 1.515388 1.515573 1.450202e+00 1.432843 1.348483 1.506797 1.490868e+00 1.437337 1.441501 1.403634 1.359119e+00 1.393892 1.379323 1.437886 1.486970e+00 1.416566 1.396837 1.348622 1.460451e+00 1.444644 1.357543 1.315167 1.281850e+00 1.414287 1.436149 1.440538 1.389258e+00 1.363330 1.316182 1.334060 1.419477e+00 1.368539 1.311154 1.337341 1.346635e+00 1.265715 1.295229 1.305303 1.386424e+00 1.299552 1.271543 1.351782 1.355346e+00 1.276210 1.324392 1.288607 1.267390e+00 1.406514 1.335797 1.283657 1.293733e+00 1.273850 1.384059 1.277948 1.353594e+00 1.327554 1.271689 1.237162 1.271596e+00 1.374567 1.371189 1.313073 1.332612e+00 1.273092 1.388141 1.371784 1.389728e+00 1.328825 1.329182 1.411708 1.408524e+00 1.308698 1.449428 1.420601 1.372589e+00 1.400362 1.365320 1.312173 1.417296e+00 1.377151 1.349746 1.352325 1.330599e+00 1.325023 1.376710 1.282279 1.329067e+00 1.395721 1.347327 1.326745 1.368751e+00 1.410976 1.366326 1.444024 1.420149e+00 1.404148 1.416393 1.453218 1.370393e+00 1.421318 1.409054 1.418518 1.408781e+00 4.781162 4.837633 4.849044 4.784815e+00 4.825349 4.857404 4.982833 4.944918e+00 5.029946 5.080494 5.027264 4.901377e+00 4.955949 5.026913 4.840874 4.778637e+00 4.760442 4.678077 4.667823 4.505210e+00 4.475468 4.379834 4.445398 4.309202e+00 4.328567 4.279818 4.190134 4.262980e+00 4.107670 4.067820 4.081572 3.950014e+00 4.042391 3.962011 3.930584 3.866854e+00 3.783390 3.736851 3.710581 3.700592e+00 3.682367 3.665804 3.618475 3.588511e+00 3.572855 3.463447 3.515343 3.532716e+00 3.474706 3.521842 3.403757 3.414256e+00 3.310222 3.284381 3.321054 3.339920e+00 3.236790 3.193681 3.243869 3.183921e+00 3.106675 3.204429 3.196185 3.102149e+00 2.997268 3.215484 3.078698 2.922263e+00 3.107159 3.003886 2.977304 2.990069e+00 2.954522 2.969244 2.967899 2.954545e+00 2.891867 2.819762 2.902795 2.841285e+00 2.845069 2.851478 2.833307 2.793832e+00 2.862979 2.832813 2.800521 2.838161e+00 2.880018 2.703656 2.761648 2.692083e+00 2.755779 2.812773 2.710864 2.668563e+00 2.734142 2.705792 2.780229 2.758049e+00 2.707096 2.703313 2.734464 2.669334e+00 2.677864 2.660633 2.700226 2.689165e+00 2.741626 2.629791 2.638389 2.680662e+00 2.685998 2.565148 2.559851 2.664894e+00 2.568906 2.579233 2.566664 2.646989e+00 2.558809 2.620780 2.700501 2.616723e+00 2.616609 2.595979 2.673336 2.506766e+00 2.559949 2.493064 2.587707 2.653936e+00 2.517653 2.559967 2.564222 2.586037e+00 2.600461 5.182966 6.385683 5.967156e-02 5.182966 6.385683 0.059672
ODOM 5.166546 6.773733 -0.089786 0.000000 0.000000 0.000000
